{
  "302": { "lat": 26.9124, "lng": 75.7873, "city": "Jaipur" },
  "342": { "lat": 26.2389, "lng": 73.0243, "city": "Jodhpur" },
  "324": { "lat": 25.1728, "lng": 75.8391, "city": "Kota" },
  "305": { "lat": 26.4499, "lng": 74.6399, "city": "Ajmer" },
  "313": { "lat": 24.5854, "lng": 73.7125, "city": "Udaipur" },
  "334": { "lat": 28.0229, "lng": 73.3119, "city": "Bikaner" },
  "301": { "lat": 27.5530, "lng": 76.6346, "city": "Alwar" },
  "110": { "lat": 28.6139, "lng": 77.2090, "city": "Delhi" },
  "400": { "lat": 19.0760, "lng": 72.8777, "city": "Mumbai" },
  "560": { "lat": 12.9716, "lng": 77.5946, "city": "Bangalore" },
  "600": { "lat": 13.0827, "lng": 80.2707, "city": "Chennai" },
  "700": { "lat": 22.5726, "lng": 88.3639, "city": "Kolkata" },
  "380": { "lat": 23.0225, "lng": 72.5714, "city": "Ahmedabad" },
  "411": { "lat": 18.5204, "lng": 73.8567, "city": "Pune" },
  "395": { "lat": 21.1702, "lng": 72.8311, "city": "Surat" }
}
